{"d":[{"__type":"MetadataClasses.Metadata","Name":"ELLIOTT","ID":"040010","Latitude":38.219,"Longitude":-121.203,"Elevation":-99,"StartDate":"19260701"},{"__type":"MetadataClasses.Metadata","Name":"ADIN RS","ID":"040029","Latitude":41.194,"Longitude":-120.945,"Elevation":-99,"StartDate":"19431001"},{"__type":"MetadataClasses.Metadata","Name":"ALTURAS","ID":"040161","Latitude":41.493,"Longitude":-120.553,"Elevation":-99,"StartDate":"19320101"},{"__type":"MetadataClasses.Metadata","Name":"ASH MTN","ID":"040343","Latitude":36.491,"Longitude":-118.825,"Elevation":-99,"StartDate":"19270101"},{"__type":"MetadataClasses.Metadata","Name":"AUBERRY","ID":"040379","Latitude":37.092,"Longitude":-119.513,"Elevation":-99,"StartDate":"19700301"},{"__type":"MetadataClasses.Metadata","Name":"AUBURN","ID":"040383","Latitude":38.907,"Longitude":-121.084,"Elevation":-99,"StartDate":"19250101"},{"__type":"MetadataClasses.Metadata","Name":"BAKERSFIELD AP","ID":"040442","Latitude":35.434,"Longitude":-119.054,"Elevation":-99,"StartDate":"19371001"},{"__type":"MetadataClasses.Metadata","Name":"BEN LOMOND #4","ID":"040673","Latitude":37.086,"Longitude":-122.08,"Elevation":-99,"StartDate":"19370101"},{"__type":"MetadataClasses.Metadata","Name":"BIG BAR 4 E","ID":"040738","Latitude":40.74,"Longitude":-123.208,"Elevation":-99,"StartDate":"19490101"},{"__type":"MetadataClasses.Metadata","Name":"BIG BEAR LAKE","ID":"040741","Latitude":34.244,"Longitude":-116.904,"Elevation":-99,"StartDate":"19600701"},{"__type":"MetadataClasses.Metadata","Name":"BISHOP AP","ID":"040822","Latitude":37.371,"Longitude":-118.358,"Elevation":-99,"StartDate":"19480101"},{"__type":"MetadataClasses.Metadata","Name":"BLYTHE","ID":"040924","Latitude":33.613,"Longitude":-114.597,"Elevation":-99,"StartDate":"19250101"},{"__type":"MetadataClasses.Metadata","Name":"BLYTHE AP","ID":"040927","Latitude":33.619,"Longitude":-114.714,"Elevation":-99,"StartDate":"19480701"},{"__type":"MetadataClasses.Metadata","Name":"BORREGO DESERT PARK","ID":"040983","Latitude":33.231,"Longitude":-116.414,"Elevation":-99,"StartDate":"19510101"},{"__type":"MetadataClasses.Metadata","Name":"BOWMAN DAM","ID":"041018","Latitude":39.454,"Longitude":-120.656,"Elevation":-99,"StartDate":"19270101"},{"__type":"MetadataClasses.Metadata","Name":"BRAWLEY","ID":"041048","Latitude":32.954,"Longitude":-115.558,"Elevation":-99,"StartDate":"19270101"},{"__type":"MetadataClasses.Metadata","Name":"BRIDGEPORT","ID":"041072","Latitude":38.258,"Longitude":-119.229,"Elevation":-99,"StartDate":"19570701"},{"__type":"MetadataClasses.Metadata","Name":"BUCKHORN","ID":"041149","Latitude":40.867,"Longitude":-121.846,"Elevation":-99,"StartDate":"19670101"},{"__type":"MetadataClasses.Metadata","Name":"BURBANK GLENDALE PASADENA AP","ID":"041194","Latitude":34.201,"Longitude":-118.358,"Elevation":-99,"StartDate":"19670101"},{"__type":"MetadataClasses.Metadata","Name":"BUTTONWILLOW","ID":"041244","Latitude":35.405,"Longitude":-119.473,"Elevation":-99,"StartDate":"19400101"},{"__type":"MetadataClasses.Metadata","Name":"CACHUMA LAKE","ID":"041253","Latitude":34.583,"Longitude":-119.981,"Elevation":-99,"StartDate":"19520301"},{"__type":"MetadataClasses.Metadata","Name":"CALAVERAS BIG TREES","ID":"041277","Latitude":38.277,"Longitude":-120.311,"Elevation":-99,"StartDate":"19291001"},{"__type":"MetadataClasses.Metadata","Name":"CALEXICO","ID":"041288","Latitude":32.688,"Longitude":-115.464,"Elevation":-99,"StartDate":"19420201"},{"__type":"MetadataClasses.Metadata","Name":"CALISTOGA","ID":"041312","Latitude":38.596,"Longitude":-122.601,"Elevation":-99,"StartDate":"19430501"},{"__type":"MetadataClasses.Metadata","Name":"CAMPO","ID":"041424","Latitude":32.623,"Longitude":-116.473,"Elevation":-99,"StartDate":"19590101"},{"__type":"MetadataClasses.Metadata","Name":"CAMP PARDEE","ID":"041428","Latitude":38.249,"Longitude":-120.843,"Elevation":-99,"StartDate":"19590101"},{"__type":"MetadataClasses.Metadata","Name":"CANYON DAM","ID":"041497","Latitude":40.17,"Longitude":-121.088,"Elevation":-99,"StartDate":"19220101"},{"__type":"MetadataClasses.Metadata","Name":"CEDARVILLE","ID":"041614","Latitude":41.531,"Longitude":-120.18,"Elevation":-99,"StartDate":"19580101"},{"__type":"MetadataClasses.Metadata","Name":"CHESTER","ID":"041700","Latitude":40.303,"Longitude":-121.242,"Elevation":-99,"StartDate":"19190101"},{"__type":"MetadataClasses.Metadata","Name":"CHICO UNIV FARM","ID":"041715","Latitude":39.691,"Longitude":-121.821,"Elevation":-99,"StartDate":"19080101"},{"__type":"MetadataClasses.Metadata","Name":"CHINA LAKE NAF","ID":"041733","Latitude":35.688,"Longitude":-117.693,"Elevation":-99,"StartDate":"19440201"},{"__type":"MetadataClasses.Metadata","Name":"CHULA VISTA","ID":"041758","Latitude":32.64,"Longitude":-117.086,"Elevation":-99,"StartDate":"19180901"},{"__type":"MetadataClasses.Metadata","Name":"COALINGA","ID":"041864","Latitude":36.136,"Longitude":-120.361,"Elevation":-99,"StartDate":"19420102"},{"__type":"MetadataClasses.Metadata","Name":"COLEMAN FISHERIES","ID":"041907","Latitude":40.4,"Longitude":-122.143,"Elevation":-99,"StartDate":"19431101"},{"__type":"MetadataClasses.Metadata","Name":"COLGATE P H","ID":"041916","Latitude":39.331,"Longitude":-121.192,"Elevation":-99,"StartDate":"19081001"},{"__type":"MetadataClasses.Metadata","Name":"COPCO #1 DAM","ID":"041990","Latitude":41.98,"Longitude":-122.338,"Elevation":-99,"StartDate":"19590501"},{"__type":"MetadataClasses.Metadata","Name":"CRESCENT CITY","ID":"042147","Latitude":41.796,"Longitude":-124.215,"Elevation":-99,"StartDate":"19460101"},{"__type":"MetadataClasses.Metadata","Name":"CULVER CITY","ID":"042214","Latitude":34.005,"Longitude":-118.413,"Elevation":-99,"StartDate":"19350101"},{"__type":"MetadataClasses.Metadata","Name":"CUYAMACA","ID":"042239","Latitude":32.99,"Longitude":-116.587,"Elevation":-99,"StartDate":"19390101"},{"__type":"MetadataClasses.Metadata","Name":"BARSTOW DAGGETT AP","ID":"042257","Latitude":34.854,"Longitude":-116.786,"Elevation":-99,"StartDate":"19480701"},{"__type":"MetadataClasses.Metadata","Name":"DAVIS 2 WSW EXP FARM","ID":"042294","Latitude":38.535,"Longitude":-121.776,"Elevation":-99,"StartDate":"19160101"},{"__type":"MetadataClasses.Metadata","Name":"DEATH VALLEY","ID":"042319","Latitude":36.462,"Longitude":-116.867,"Elevation":-99,"StartDate":"19590101"},{"__type":"MetadataClasses.Metadata","Name":"DELANO","ID":"042346","Latitude":35.768,"Longitude":-119.26,"Elevation":-99,"StartDate":"19430501"},{"__type":"MetadataClasses.Metadata","Name":"DE SABLA","ID":"042402","Latitude":39.872,"Longitude":-121.611,"Elevation":-99,"StartDate":"19190101"},{"__type":"MetadataClasses.Metadata","Name":"DONNER MEM SP","ID":"042467","Latitude":39.324,"Longitude":-120.233,"Elevation":-99,"StartDate":"19531001"},{"__type":"MetadataClasses.Metadata","Name":"DOYLE 4 SSE","ID":"042506","Latitude":39.972,"Longitude":-120.083,"Elevation":-99,"StartDate":"19560701"},{"__type":"MetadataClasses.Metadata","Name":"EAGLE MTN","ID":"042598","Latitude":33.809,"Longitude":-115.451,"Elevation":-99,"StartDate":"19331101"},{"__type":"MetadataClasses.Metadata","Name":"EL CENTRO 2 SSW","ID":"042713","Latitude":32.767,"Longitude":-115.562,"Elevation":-99,"StartDate":"19320301"},{"__type":"MetadataClasses.Metadata","Name":"EUREKA WFO WOODLEY ISLAND","ID":"042910","Latitude":40.81,"Longitude":-124.16,"Elevation":-99,"StartDate":"19080101"},{"__type":"MetadataClasses.Metadata","Name":"FAIRFIELD","ID":"042934","Latitude":38.274,"Longitude":-122.068,"Elevation":-99,"StartDate":"19501205"},{"__type":"MetadataClasses.Metadata","Name":"FAIRMONT","ID":"042941","Latitude":34.704,"Longitude":-118.427,"Elevation":-99,"StartDate":"19190101"},{"__type":"MetadataClasses.Metadata","Name":"FORESTHILL RS","ID":"043134","Latitude":39.01,"Longitude":-120.845,"Elevation":-99,"StartDate":"19391201"},{"__type":"MetadataClasses.Metadata","Name":"FT BIDWELL","ID":"043157","Latitude":41.52,"Longitude":-120.09,"Elevation":-99,"StartDate":"19110518"},{"__type":"MetadataClasses.Metadata","Name":"FT JONES RNG STN","ID":"043182","Latitude":41.6,"Longitude":-122.848,"Elevation":-99,"StartDate":"19360109"},{"__type":"MetadataClasses.Metadata","Name":"FRESNO YOSEMITE INTL AP","ID":"043257","Latitude":36.78,"Longitude":-119.719,"Elevation":-99,"StartDate":"19490801"},{"__type":"MetadataClasses.Metadata","Name":"FRIANT GOVERNMENT CP","ID":"043261","Latitude":36.997,"Longitude":-119.707,"Elevation":-99,"StartDate":"19400101"},{"__type":"MetadataClasses.Metadata","Name":"GASQUET RS","ID":"043357","Latitude":41.845,"Longitude":-123.965,"Elevation":-99,"StartDate":"19480701"},{"__type":"MetadataClasses.Metadata","Name":"GEORGETOWN RS","ID":"043384","Latitude":38.933,"Longitude":-120.801,"Elevation":-99,"StartDate":"19461201"},{"__type":"MetadataClasses.Metadata","Name":"GILROY","ID":"043417","Latitude":37.007,"Longitude":-121.563,"Elevation":-99,"StartDate":"19570614"},{"__type":"MetadataClasses.Metadata","Name":"GLENNVILLE","ID":"043463","Latitude":35.727,"Longitude":-118.701,"Elevation":-99,"StartDate":"19510618"},{"__type":"MetadataClasses.Metadata","Name":"GRANT GROVE","ID":"043551","Latitude":36.739,"Longitude":-118.963,"Elevation":-99,"StartDate":"19400701"},{"__type":"MetadataClasses.Metadata","Name":"GRASS VALLEY #2","ID":"043573","Latitude":39.204,"Longitude":-121.068,"Elevation":-99,"StartDate":"19661001"},{"__type":"MetadataClasses.Metadata","Name":"GRATON","ID":"043578","Latitude":38.431,"Longitude":-122.865,"Elevation":-99,"StartDate":"19260101"},{"__type":"MetadataClasses.Metadata","Name":"HAIWEE","ID":"043710","Latitude":36.139,"Longitude":-117.953,"Elevation":-99,"StartDate":"19260101"},{"__type":"MetadataClasses.Metadata","Name":"HAPPY CAMP RS","ID":"043761","Latitude":41.804,"Longitude":-123.376,"Elevation":-99,"StartDate":"19290101"},{"__type":"MetadataClasses.Metadata","Name":"HAT CREEK","ID":"043824","Latitude":40.932,"Longitude":-121.543,"Elevation":-99,"StartDate":"19480101"},{"__type":"MetadataClasses.Metadata","Name":"HAYFIELD PUMP PLT","ID":"043855","Latitude":33.704,"Longitude":-115.629,"Elevation":-99,"StartDate":"19340101"},{"__type":"MetadataClasses.Metadata","Name":"HAYFORK","ID":"043859","Latitude":40.553,"Longitude":-123.212,"Elevation":-99,"StartDate":"19440101"},{"__type":"MetadataClasses.Metadata","Name":"HEALDSBURG","ID":"043875","Latitude":38.617,"Longitude":-122.873,"Elevation":-99,"StartDate":"19160101"},{"__type":"MetadataClasses.Metadata","Name":"HEMET","ID":"043896","Latitude":33.738,"Longitude":-116.894,"Elevation":-99,"StartDate":"19420701"},{"__type":"MetadataClasses.Metadata","Name":"HENSHAW DAM","ID":"043914","Latitude":33.237,"Longitude":-116.761,"Elevation":-99,"StartDate":"19420901"},{"__type":"MetadataClasses.Metadata","Name":"HETCH HETCHY","ID":"043939","Latitude":37.961,"Longitude":-119.783,"Elevation":-99,"StartDate":"19250101"},{"__type":"MetadataClasses.Metadata","Name":"IDYLLWILD FIRE DEPT","ID":"044211","Latitude":33.757,"Longitude":-116.707,"Elevation":-99,"StartDate":"19431001"},{"__type":"MetadataClasses.Metadata","Name":"IMPERIAL","ID":"044223","Latitude":32.849,"Longitude":-115.567,"Elevation":-99,"StartDate":"19251001"},{"__type":"MetadataClasses.Metadata","Name":"INDEPENDENCE","ID":"044232","Latitude":36.798,"Longitude":-118.204,"Elevation":-99,"StartDate":"19480701"},{"__type":"MetadataClasses.Metadata","Name":"INYOKERN","ID":"044278","Latitude":35.652,"Longitude":-117.824,"Elevation":-99,"StartDate":"19490101"},{"__type":"MetadataClasses.Metadata","Name":"IRON MTN","ID":"044297","Latitude":34.147,"Longitude":-115.122,"Elevation":-99,"StartDate":"19350101"},{"__type":"MetadataClasses.Metadata","Name":"JESS VALLEY","ID":"044374","Latitude":41.268,"Longitude":-120.295,"Elevation":-99,"StartDate":"19480801"},{"__type":"MetadataClasses.Metadata","Name":"JUNCAL DAM","ID":"044422","Latitude":34.491,"Longitude":-119.507,"Elevation":-99,"StartDate":"19690801"},{"__type":"MetadataClasses.Metadata","Name":"KENTFIELD","ID":"044500","Latitude":37.957,"Longitude":-122.544,"Elevation":-99,"StartDate":"19250101"},{"__type":"MetadataClasses.Metadata","Name":"KERN RIVER PH 3","ID":"044523","Latitude":35.783,"Longitude":-118.439,"Elevation":-99,"StartDate":"19461001"},{"__type":"MetadataClasses.Metadata","Name":"KLAMATH","ID":"044577","Latitude":41.579,"Longitude":-124.075,"Elevation":-99,"StartDate":"19480701"},{"__type":"MetadataClasses.Metadata","Name":"LAKESIDE 2 E","ID":"044710","Latitude":32.854,"Longitude":-116.895,"Elevation":-99,"StartDate":"19670501"},{"__type":"MetadataClasses.Metadata","Name":"LEMON COVE","ID":"044890","Latitude":36.382,"Longitude":-119.026,"Elevation":-99,"StartDate":"19240101"},{"__type":"MetadataClasses.Metadata","Name":"LINDSAY","ID":"044957","Latitude":36.203,"Longitude":-119.058,"Elevation":-99,"StartDate":"19180101"},{"__type":"MetadataClasses.Metadata","Name":"LIVERMORE","ID":"044997","Latitude":37.692,"Longitude":-121.769,"Elevation":-99,"StartDate":"19080101"},{"__type":"MetadataClasses.Metadata","Name":"LODGEPOLE","ID":"045026","Latitude":36.604,"Longitude":-118.733,"Elevation":-99,"StartDate":"19681108"},{"__type":"MetadataClasses.Metadata","Name":"LOMPOC","ID":"045064","Latitude":34.654,"Longitude":-120.451,"Elevation":-99,"StartDate":"19500701"},{"__type":"MetadataClasses.Metadata","Name":"LONG BEACH DAUGHERTY FLD","ID":"045085","Latitude":33.812,"Longitude":-118.146,"Elevation":-99,"StartDate":"19590101"},{"__type":"MetadataClasses.Metadata","Name":"LOS ALAMOS","ID":"045107","Latitude":34.746,"Longitude":-120.28,"Elevation":-99,"StartDate":"19260101"},{"__type":"MetadataClasses.Metadata","Name":"LOS ANGELES INTL AP","ID":"045114","Latitude":33.938,"Longitude":-118.389,"Elevation":-99,"StartDate":"19440801"},{"__type":"MetadataClasses.Metadata","Name":"LOS ANGELES DWTN USC CAMPUS","ID":"045115","Latitude":34.022,"Longitude":-118.291,"Elevation":-99,"StartDate":"19210101"},{"__type":"MetadataClasses.Metadata","Name":"LOS BANOS","ID":"045118","Latitude":37.053,"Longitude":-120.87,"Elevation":-99,"StartDate":"19260101"},{"__type":"MetadataClasses.Metadata","Name":"LOS BANOS ARBURUA RCH","ID":"045119","Latitude":36.881,"Longitude":-120.942,"Elevation":-99,"StartDate":"19491201"},{"__type":"MetadataClasses.Metadata","Name":"LOS BANOS DET RESV","ID":"045120","Latitude":36.99,"Longitude":-120.93,"Elevation":-99,"StartDate":"19680701"},{"__type":"MetadataClasses.Metadata","Name":"LOS GATOS","ID":"045123","Latitude":37.232,"Longitude":-121.959,"Elevation":-99,"StartDate":"19240101"},{"__type":"MetadataClasses.Metadata","Name":"MADERA","ID":"045233","Latitude":36.954,"Longitude":-120.038,"Elevation":-99,"StartDate":"19280101"},{"__type":"MetadataClasses.Metadata","Name":"MANZANITA LAKE","ID":"045311","Latitude":40.541,"Longitude":-121.577,"Elevation":-99,"StartDate":"19490101"},{"__type":"MetadataClasses.Metadata","Name":"MARKLEY COVE","ID":"045360","Latitude":38.494,"Longitude":-122.126,"Elevation":-99,"StartDate":"19700301"},{"__type":"MetadataClasses.Metadata","Name":"MARTINEZ WTP","ID":"045378","Latitude":38.013,"Longitude":-122.114,"Elevation":-99,"StartDate":"19431001"},{"__type":"MetadataClasses.Metadata","Name":"MARYSVILLE","ID":"045385","Latitude":39.146,"Longitude":-121.585,"Elevation":-99,"StartDate":"19510101"},{"__type":"MetadataClasses.Metadata","Name":"MERCED AP","ID":"045532","Latitude":37.286,"Longitude":-120.512,"Elevation":-99,"StartDate":"19250101"},{"__type":"MetadataClasses.Metadata","Name":"MINERAL","ID":"045679","Latitude":40.346,"Longitude":-121.609,"Elevation":-99,"StartDate":"19420101"},{"__type":"MetadataClasses.Metadata","Name":"MITCHELL CAVERNS","ID":"045721","Latitude":34.944,"Longitude":-115.547,"Elevation":-99,"StartDate":"19580311"},{"__type":"MetadataClasses.Metadata","Name":"MONTEREY","ID":"045795","Latitude":36.59,"Longitude":-121.91,"Elevation":-99,"StartDate":"19630925"},{"__type":"MetadataClasses.Metadata","Name":"MORRO BAY FIRE DEPT","ID":"045866","Latitude":35.367,"Longitude":-120.845,"Elevation":-99,"StartDate":"19590201"},{"__type":"MetadataClasses.Metadata","Name":"MT DIABLO JUNCTION","ID":"045915","Latitude":37.879,"Longitude":-121.93,"Elevation":-99,"StartDate":"19520401"},{"__type":"MetadataClasses.Metadata","Name":"MT HAMILTON","ID":"045933","Latitude":37.344,"Longitude":-121.642,"Elevation":-99,"StartDate":"19510101"},{"__type":"MetadataClasses.Metadata","Name":"MT HEBRON RNG STN","ID":"045941","Latitude":41.784,"Longitude":-122.045,"Elevation":-99,"StartDate":"19510801"},{"__type":"MetadataClasses.Metadata","Name":"NAPA STATE HOSPITAL","ID":"046074","Latitude":38.278,"Longitude":-122.265,"Elevation":-99,"StartDate":"19180101"},{"__type":"MetadataClasses.Metadata","Name":"NEEDLES AP","ID":"046118","Latitude":34.767,"Longitude":-114.619,"Elevation":-99,"StartDate":"19480701"},{"__type":"MetadataClasses.Metadata","Name":"NEVADA CITY","ID":"046136","Latitude":39.247,"Longitude":-121.001,"Elevation":-99,"StartDate":"19080101"},{"__type":"MetadataClasses.Metadata","Name":"NEWARK","ID":"046144","Latitude":37.515,"Longitude":-122.032,"Elevation":-99,"StartDate":"19620601"},{"__type":"MetadataClasses.Metadata","Name":"NEWPORT BEACH HARBOR","ID":"046175","Latitude":33.602,"Longitude":-117.88,"Elevation":-99,"StartDate":"19300101"},{"__type":"MetadataClasses.Metadata","Name":"NICOLAUS 2","ID":"046194","Latitude":38.926,"Longitude":-121.545,"Elevation":-99,"StartDate":"19621201"},{"__type":"MetadataClasses.Metadata","Name":"NORTH FORK RS","ID":"046252","Latitude":37.233,"Longitude":-119.51,"Elevation":-99,"StartDate":"19160101"},{"__type":"MetadataClasses.Metadata","Name":"OCEANSIDE MARINA","ID":"046377","Latitude":33.21,"Longitude":-117.395,"Elevation":-99,"StartDate":"19521201"},{"__type":"MetadataClasses.Metadata","Name":"OJAI","ID":"046399","Latitude":34.448,"Longitude":-119.228,"Elevation":-99,"StartDate":"19200101"},{"__type":"MetadataClasses.Metadata","Name":"ORLAND","ID":"046506","Latitude":39.746,"Longitude":-122.2,"Elevation":-99,"StartDate":"19410101"},{"__type":"MetadataClasses.Metadata","Name":"ORLEANS","ID":"046508","Latitude":41.309,"Longitude":-123.532,"Elevation":-99,"StartDate":"19080101"},{"__type":"MetadataClasses.Metadata","Name":"PACIFIC HOUSE","ID":"046597","Latitude":38.758,"Longitude":-120.503,"Elevation":-99,"StartDate":"19411101"},{"__type":"MetadataClasses.Metadata","Name":"PALMDALE","ID":"046624","Latitude":34.588,"Longitude":-118.094,"Elevation":-99,"StartDate":"19330101"},{"__type":"MetadataClasses.Metadata","Name":"PALM SPRINGS","ID":"046635","Latitude":33.828,"Longitude":-116.51,"Elevation":-99,"StartDate":"19230101"},{"__type":"MetadataClasses.Metadata","Name":"PALOMAR MTN OBSVTRY","ID":"046657","Latitude":33.378,"Longitude":-116.84,"Elevation":-99,"StartDate":"19380701"},{"__type":"MetadataClasses.Metadata","Name":"PARADISE","ID":"046685","Latitude":39.754,"Longitude":-121.624,"Elevation":-99,"StartDate":"19570501"},{"__type":"MetadataClasses.Metadata","Name":"PARKER RSVR","ID":"046699","Latitude":34.29,"Longitude":-114.171,"Elevation":-99,"StartDate":"19490101"},{"__type":"MetadataClasses.Metadata","Name":"PASADENA","ID":"046719","Latitude":34.148,"Longitude":-118.145,"Elevation":-99,"StartDate":"19080101"},{"__type":"MetadataClasses.Metadata","Name":"PASO ROBLES","ID":"046730","Latitude":35.628,"Longitude":-120.686,"Elevation":-99,"StartDate":"19230101"},{"__type":"MetadataClasses.Metadata","Name":"PASO ROBLES MUNI AP","ID":"046742","Latitude":35.67,"Longitude":-120.628,"Elevation":-99,"StartDate":"19520301"},{"__type":"MetadataClasses.Metadata","Name":"PINE FLAT DAM","ID":"046896","Latitude":36.824,"Longitude":-119.336,"Elevation":-99,"StartDate":"19650101"},{"__type":"MetadataClasses.Metadata","Name":"PINNACLES NM","ID":"046926","Latitude":36.482,"Longitude":-121.182,"Elevation":-99,"StartDate":"19370101"},{"__type":"MetadataClasses.Metadata","Name":"PIT RIVER PH 5","ID":"046946","Latitude":40.987,"Longitude":-121.977,"Elevation":-99,"StartDate":"19450101"},{"__type":"MetadataClasses.Metadata","Name":"POTTER VALLEY P H","ID":"047109","Latitude":39.362,"Longitude":-123.129,"Elevation":-99,"StartDate":"19370901"},{"__type":"MetadataClasses.Metadata","Name":"PRIEST VALLEY","ID":"047150","Latitude":36.188,"Longitude":-120.695,"Elevation":-99,"StartDate":"19580101"},{"__type":"MetadataClasses.Metadata","Name":"RANDSBURG","ID":"047253","Latitude":35.369,"Longitude":-117.653,"Elevation":-99,"StartDate":"19460101"},{"__type":"MetadataClasses.Metadata","Name":"REDLANDS","ID":"047306","Latitude":34.053,"Longitude":-117.189,"Elevation":-99,"StartDate":"19210101"},{"__type":"MetadataClasses.Metadata","Name":"REPRESA","ID":"047370","Latitude":38.694,"Longitude":-121.161,"Elevation":-99,"StartDate":"19241001"},{"__type":"MetadataClasses.Metadata","Name":"RICHMOND","ID":"047414","Latitude":37.919,"Longitude":-122.377,"Elevation":-99,"StartDate":"19501201"},{"__type":"MetadataClasses.Metadata","Name":"RIVERSIDE FIRE STN 3","ID":"047470","Latitude":33.951,"Longitude":-117.388,"Elevation":-99,"StartDate":"19210101"},{"__type":"MetadataClasses.Metadata","Name":"RIVERSIDE CITRUS EXP","ID":"047473","Latitude":33.967,"Longitude":-117.361,"Elevation":-99,"StartDate":"19560101"},{"__type":"MetadataClasses.Metadata","Name":"SACRAMENTO EXECUTIVE AP","ID":"047630","Latitude":38.507,"Longitude":-121.495,"Elevation":-99,"StartDate":"19480101"},{"__type":"MetadataClasses.Metadata","Name":"SACRAMENTO WSO CITY","ID":"047633","Latitude":38.556,"Longitude":-121.417,"Elevation":-99,"StartDate":"19080101"},{"__type":"MetadataClasses.Metadata","Name":"SALINAS","ID":"047668","Latitude":36.659,"Longitude":-121.666,"Elevation":-99,"StartDate":"19580501"},{"__type":"MetadataClasses.Metadata","Name":"SALINAS DAM","ID":"047672","Latitude":35.337,"Longitude":-120.504,"Elevation":-99,"StartDate":"19480701"},{"__type":"MetadataClasses.Metadata","Name":"SALSIPUEDES GAGING STN","ID":"047681","Latitude":34.586,"Longitude":-120.414,"Elevation":-99,"StartDate":"19580101"},{"__type":"MetadataClasses.Metadata","Name":"SAN CLEMENTE DAM","ID":"047731","Latitude":36.438,"Longitude":-121.709,"Elevation":-99,"StartDate":"19400101"},{"__type":"MetadataClasses.Metadata","Name":"SAN DIEGO LINDBERGH FLD","ID":"047740","Latitude":32.734,"Longitude":-117.183,"Elevation":-99,"StartDate":"19390101"},{"__type":"MetadataClasses.Metadata","Name":"SAN FRANCISCO INTL AP","ID":"047769","Latitude":37.658,"Longitude":-122.438,"Elevation":-99,"StartDate":"19450701"},{"__type":"MetadataClasses.Metadata","Name":"SAN FRANCISCO DWTN","ID":"047772","Latitude":37.771,"Longitude":-122.427,"Elevation":-99,"StartDate":"19080101"},{"__type":"MetadataClasses.Metadata","Name":"SAN GABRIEL FIRE DEP","ID":"047785","Latitude":34.106,"Longitude":-118.1,"Elevation":-99,"StartDate":"19440101"},{"__type":"MetadataClasses.Metadata","Name":"SAN JOSE","ID":"047821","Latitude":37.359,"Longitude":-121.924,"Elevation":-99,"StartDate":"19640201"},{"__type":"MetadataClasses.Metadata","Name":"SAN LUIS DAM","ID":"047846","Latitude":37.053,"Longitude":-121.058,"Elevation":-99,"StartDate":"19630117"},{"__type":"MetadataClasses.Metadata","Name":"SANTA ANA FIRE STN","ID":"047888","Latitude":33.744,"Longitude":-117.867,"Elevation":-99,"StartDate":"19200101"},{"__type":"MetadataClasses.Metadata","Name":"SANTA CRUZ","ID":"047916","Latitude":36.991,"Longitude":-121.991,"Elevation":-99,"StartDate":"19310101"},{"__type":"MetadataClasses.Metadata","Name":"SANTA MARGARITA","ID":"047933","Latitude":35.374,"Longitude":-120.638,"Elevation":-99,"StartDate":"19480101"},{"__type":"MetadataClasses.Metadata","Name":"SANTA MARIA PUBLIC AP","ID":"047946","Latitude":34.899,"Longitude":-120.449,"Elevation":-99,"StartDate":"19480101"},{"__type":"MetadataClasses.Metadata","Name":"SCOTIA","ID":"048045","Latitude":40.483,"Longitude":-124.104,"Elevation":-99,"StartDate":"19260101"},{"__type":"MetadataClasses.Metadata","Name":"SHASTA DAM","ID":"048135","Latitude":40.714,"Longitude":-122.416,"Elevation":-99,"StartDate":"19430101"},{"__type":"MetadataClasses.Metadata","Name":"SIERRAVILLE RS","ID":"048218","Latitude":39.583,"Longitude":-120.371,"Elevation":-99,"StartDate":"19220101"},{"__type":"MetadataClasses.Metadata","Name":"STOCKTON METRO AP","ID":"048558","Latitude":37.889,"Longitude":-121.226,"Elevation":-99,"StartDate":"19481001"},{"__type":"MetadataClasses.Metadata","Name":"STOCKTON FIRE STN #","ID":"048560","Latitude":37.999,"Longitude":-121.318,"Elevation":-99,"StartDate":"19260101"},{"__type":"MetadataClasses.Metadata","Name":"STRAWBERRY VALLEY","ID":"048606","Latitude":39.563,"Longitude":-121.108,"Elevation":-99,"StartDate":"19481101"},{"__type":"MetadataClasses.Metadata","Name":"TAHOE CITY","ID":"048758","Latitude":39.168,"Longitude":-120.143,"Elevation":-99,"StartDate":"19100101"},{"__type":"MetadataClasses.Metadata","Name":"TEJON RANCHO","ID":"048839","Latitude":35.023,"Longitude":-118.75,"Elevation":-99,"StartDate":"19241001"},{"__type":"MetadataClasses.Metadata","Name":"PALM SPRINGS THERMAL AP","ID":"048892","Latitude":33.628,"Longitude":-116.16,"Elevation":-99,"StartDate":"19500512"},{"__type":"MetadataClasses.Metadata","Name":"TORRANCE AP","ID":"048973","Latitude":33.802,"Longitude":-118.341,"Elevation":-99,"StartDate":"19320101"},{"__type":"MetadataClasses.Metadata","Name":"TRACY PUMPING PLT","ID":"049001","Latitude":37.797,"Longitude":-121.583,"Elevation":-99,"StartDate":"19550201"},{"__type":"MetadataClasses.Metadata","Name":"TRUCKEE RS","ID":"049043","Latitude":39.333,"Longitude":-120.173,"Elevation":-99,"StartDate":"19350101"},{"__type":"MetadataClasses.Metadata","Name":"TULELAKE","ID":"049053","Latitude":41.96,"Longitude":-121.474,"Elevation":-99,"StartDate":"19320101"},{"__type":"MetadataClasses.Metadata","Name":"TURLOCK #2","ID":"049073","Latitude":37.501,"Longitude":-120.855,"Elevation":-99,"StartDate":"19250101"},{"__type":"MetadataClasses.Metadata","Name":"TWENTYNINE PALMS","ID":"049099","Latitude":34.128,"Longitude":-116.037,"Elevation":-99,"StartDate":"19350501"},{"__type":"MetadataClasses.Metadata","Name":"UKIAH","ID":"049122","Latitude":39.147,"Longitude":-123.21,"Elevation":-99,"StartDate":"19080101"},{"__type":"MetadataClasses.Metadata","Name":"U C L A","ID":"049152","Latitude":34.07,"Longitude":-118.443,"Elevation":-99,"StartDate":"19380101"},{"__type":"MetadataClasses.Metadata","Name":"UPPER SAN LEANDRO FLTRS","ID":"049185","Latitude":37.772,"Longitude":-122.168,"Elevation":-99,"StartDate":"19580801"},{"__type":"MetadataClasses.Metadata","Name":"VINTON","ID":"049351","Latitude":39.806,"Longitude":-120.186,"Elevation":-99,"StartDate":"19500301"},{"__type":"MetadataClasses.Metadata","Name":"VISALIA","ID":"049367","Latitude":36.328,"Longitude":-119.299,"Elevation":-99,"StartDate":"19250101"},{"__type":"MetadataClasses.Metadata","Name":"VISTA 2 NNE","ID":"049378","Latitude":33.229,"Longitude":-117.227,"Elevation":-99,"StartDate":"19630101"},{"__type":"MetadataClasses.Metadata","Name":"VOLTA PWR HOUSE","ID":"049390","Latitude":40.458,"Longitude":-121.866,"Elevation":-99,"StartDate":"19430101"},{"__type":"MetadataClasses.Metadata","Name":"WASCO","ID":"049452","Latitude":35.597,"Longitude":-119.353,"Elevation":-99,"StartDate":"19250101"},{"__type":"MetadataClasses.Metadata","Name":"WATSONVILLE WATERWRK","ID":"049473","Latitude":36.931,"Longitude":-121.769,"Elevation":-99,"StartDate":"19420101"},{"__type":"MetadataClasses.Metadata","Name":"WEST POINT","ID":"049582","Latitude":38.377,"Longitude":-120.545,"Elevation":-99,"StartDate":"19691001"},{"__type":"MetadataClasses.Metadata","Name":"WHISKEYTOWN RESERVOI","ID":"049621","Latitude":40.612,"Longitude":-122.528,"Elevation":-99,"StartDate":"19600416"},{"__type":"MetadataClasses.Metadata","Name":"WILLOWS 6 W","ID":"049699","Latitude":39.523,"Longitude":-122.306,"Elevation":-99,"StartDate":"19080101"},{"__type":"MetadataClasses.Metadata","Name":"WINTERS","ID":"049742","Latitude":38.523,"Longitude":-121.968,"Elevation":-99,"StartDate":"19420701"},{"__type":"MetadataClasses.Metadata","Name":"WOODLAND 1 WNW","ID":"049781","Latitude":38.683,"Longitude":-121.794,"Elevation":-99,"StartDate":"19260101"},{"__type":"MetadataClasses.Metadata","Name":"YREKA","ID":"049866","Latitude":41.704,"Longitude":-122.641,"Elevation":-99,"StartDate":"19140101"},{"__type":"MetadataClasses.Metadata","Name":"FRESNO YOSEMITE INTL AP","ID":"KFAT  ","Latitude":36.78,"Longitude":-119.719,"Elevation":-99,"StartDate":"19490821"}]}